{
    "result": "S",
    "msg": null,
    "data": [
        {
            "project_id": "541CC9D0-B2C9-4898-9B8F-D7340164F5EA",
            "project_lat": 30.93020023007514400000,
            "CITY_NAME": "成都市",
            "project_name": "成都彭州美的碧桂园观澜府",
            "project_long": 103.94580360002918000000
        },
        {
            "project_id": "5F073828-2048-424C-B4D7-0947B4451237",
            "project_lat": 30.01664271000000000000,
            "CITY_NAME": "眉山市",
            "project_name": "眉山仁寿美的云溪郡",
            "project_long": 104.19884090000000000000
        },
        {
            "project_id": "8702BE57-0F14-4777-A5D1-22DA6F632CAD",
            "project_lat": 30.01690080000000000000,
            "CITY_NAME": "眉山市",
            "project_name": "眉山仁寿美的金辉郡",
            "project_long": 104.19937990000000000000
        },
        {
            "project_id": "B0C4D46D-5943-48E0-A5B4-E72BB42FD043",
            "project_lat": 30.85101190000000000000,
            "CITY_NAME": "成都市",
            "project_name": "成都美的·澜桥郡",
            "project_long": 104.30806500000000000000
        },
        {
            "project_id": "C572EBB6-ED7D-4124-8A82-E3CAEC8AA1F0",
            "project_lat": 29.62775705000000000000,
            "CITY_NAME": "乐山市",
            "project_name": "乐山美的珺御府",
            "project_long": 103.73730110000000000000
        },
        {
            "project_id": "CB58C24A-61E4-4A5A-BF86-38AF02B6D07F",
            "project_lat": 30.89786220000000000000,
            "CITY_NAME": "成都市",
            "project_name": "成都美的新城公园天下",
            "project_long": 104.24327110000000000000
        }
    ]
}